{
  "cities": [
    {
      "cityName": "Lisbon",
      "country": "Portugal",
      "emoji": "ðŸ‡µðŸ‡¹",
      "date": "2027-10-31T15:59:59.138Z",
      "notes": "My favorite city so far!",
      "position": {
        "lat": 38.727881642324164,
        "lng": -9.140900099907554
      },
      "id": "73930385"
    },
    {
      "cityName": "Madrid",
      "country": "Spain",
      "emoji": "ðŸ‡ªðŸ‡¸",
      "date": "2027-07-15T08:22:53.976Z",
      "notes": "",
      "position": {
        "lat": 40.46635901755316,
        "lng": -3.7133789062500004
      },
      "id": "17806751"
    },
    {
      "cityName": "Berlin",
      "country": "Germany",
      "emoji": "ðŸ‡©ðŸ‡ª",
      "date": "2027-02-12T09:24:11.863Z",
      "notes": "Amazing ðŸ˜ƒ",
      "position": {
        "lat": 52.53586782505711,
        "lng": 13.376933665713324
      },
      "id": "98443197"
    },
    {
      "id": "7fbf",
      "cityName": "Zaragoza",
      "country": "Spain",
      "emoji": "ðŸ‡ªðŸ‡¸",
      "date": "2024-12-07T13:22:35.222Z",
      "notes": "",
      "position": {
        "lat": "41.73852846935917",
        "lng": "-0.9008789062500001"
      }
    },
    {
      "id": "1bb8",
      "cityName": "Saramon",
      "country": "France",
      "emoji": "ðŸ‡«ðŸ‡·",
      "date": "2024-12-07T13:28:22.858Z",
      "notes": "",
      "position": {
        "lat": "43.51668853502909",
        "lng": "0.7690429687500001"
      }
    },
    {
      "id": "5ded",
      "cityName": "Nashik",
      "country": "India",
      "emoji": "ðŸ‡®ðŸ‡³",
      "date": "2024-12-08T10:07:58.656Z",
      "notes": "My Home town",
      "position": {
        "lat": "19.983673966092503",
        "lng": "73.77319335937501"
      }
    },
    {
      "id": "de4f",
      "cityName": "Manchester",
      "country": "United Kingdom of Great Britain and Northern Ireland (the)",
      "emoji": "ðŸ‡¬ðŸ‡§",
      "date": "2024-12-08T10:13:37.156Z",
      "notes": "Manchester United is my favorite club",
      "position": {
        "lat": "53.46516070239169",
        "lng": "-2.2576904296875004"
      }
    }
  ]
}